file,lat,lng,name,website
1,25.17496261,121.5230842,大屯山三等內補320號,https://suan1219.blogspot.com/2012/05/blog-post_6471.html
2,25.1707077,121.5534425,七星山(一等),https://suan1219.blogspot.com/2012/05/blog-post_6471.html
3,25.1585127,121.709823,大武崙山(三等),https://suan1219.blogspot.com/2012/04/blog-post_11.html
4,25.1431537,121.7756954,槓子寮山,https://suan1219.blogspot.com/2012/04/blog-post_11.html
5,25.13591861,121.426767,八里觀音山硬漢嶺,https://suan1219.blogspot.com/2012/05/blog-post_6471.html
6,25.11873479,121.8491975,基隆山(三等),https://suan1219.blogspot.com/2012/05/blog-post_6471.html
7,25.11886228,121.7520436,紅淡山(三等),https://suan1219.blogspot.com/2012/04/blog-post_11.html
8,25.10878027,121.5854768,大崙頭山,https://suan1219.blogspot.com/2012/02/blog-post_20.html
9,25.08426338,121.5294094,劍潭山(二等),https://suan1219.blogspot.com/2012/04/blog-post_11.html
10,25.0709483,121.7807532,五分山(二等),https://suan1219.blogspot.com/2012/02/blog-post_20.html
11,25.05325855,121.7301566,姜子寮山(三等),https://suan1219.blogspot.com/2012/04/blog-post_11.html
12,25.05118495,121.668194,汐止大尖山,https://suan1219.blogspot.com/2012/04/blog-post_11.html
13,25.02556625,121.5863199,南港山(三等),https://suan1219.blogspot.com/2012/07/blog-post_18.html
14,25.02312477,121.6355824,土庫岳(一等),https://suan1219.blogspot.com/2012/04/blog-post_11.html
15,24.9957918,121.3842888,大棟山(一等),https://suan1219.blogspot.com/2012/02/blog-post_20.html
16,24.96927104,121.4958563,南勢角山,https://suan1219.blogspot.com/2012/02/blog-post_20.html
17,24.96724497,121.6197758,二格山(三等),https://suan1219.blogspot.com/2012/07/blog-post_18.html
18,24.94628568,121.4561945,天上山,https://suan1219.blogspot.com/2012/02/blog-post_20.html
19,24.92662249,121.345243,鳶山,https://suan1219.blogspot.com/2012/05/blog-post_21.html
20,24.90470742,121.4912819,獅頭山(新店),https://suan1219.blogspot.com/2012/05/blog-post_21.html
21,24.86649751,121.3355756,金面山(二等),https://suan1219.blogspot.com/2012/05/blog-post_21.html
22,24.82512133,121.4175738,東眼山(三等),https://suan1219.blogspot.com/2012/05/blog-post_8.html
23,24.82448104,121.277382,溪洲山(三等),https://suan1219.blogspot.com/2012/02/blog-post.html
24,24.80999015,121.2295336,石門山,https://suan1219.blogspot.com/2012/02/blog-post.html
25,24.79351066,121.253428,石牛山(三等),https://suan1219.blogspot.com/2012/05/blog-post_8.html
26,24.79253266,120.984727,十八尖山(二等),https://suan1219.blogspot.com/2012/01/blog-post_8358.html
27,24.76651976,121.1191013,飛鳳山（中坑山）,https://suan1219.blogspot.com/2012/01/blog-post_8358.html
28,24.69265801,121.303752,李棟山,https://suan1219.blogspot.com/2016/12/1051226.html
29,24.64422804,121.0066064,獅頭山(苗栗),https://suan1219.blogspot.com/2012/01/blog-post_13.html
30,24.64131718,121.0962819,五指山,https://suan1219.blogspot.com/2012/01/blog-post.html
31,24.61005318,121.0756964,鵝公髻山(三等),https://suan1219.blogspot.com/2012/01/blog-post.html
32,24.56702024,121.0271471,向天湖山,https://suan1219.blogspot.com/2012/01/blog-post_13.html
33,24.54253812,120.9530727,仙山,https://suan1219.blogspot.com/2012/01/blog-post_8358.html
34,24.51079921,121.0125499,加里山(一等),https://suan1219.blogspot.com/2012/04/o.html
35,24.37734565,120.7303103,火炎山(三等),https://suan1219.blogspot.com/2019/02/o-20190118.html
36,24.37538202,120.8109392,關刀山,https://suan1219.blogspot.com/2007/02/blog-post_7.html
37,24.36724998,120.9139267,馬那邦山,https://suan1219.blogspot.com/2021/12/20211220.html
38,24.35634554,120.655252,鐵砧山,https://www.keepon.com.tw/thread-0a55e7e4-0ed8-e411-93ec-000e04b74954.html
39,24.23760365,120.9715695,稍來山,https://suan1219.blogspot.com/2021/12/20211213.html
40,24.22016133,120.7428704,聚興山,https://suan1219.blogspot.com/2017/11/2017-20171119.html
41,24.17937197,120.8002745,頭嵙山,https://suan1219.blogspot.com/2021/04/o-2021319.html
42,24.17306182,120.7411047,南觀音山,https://www.keepon.com.tw/thread-e95487fe-10d8-e411-93ec-000e04b74954.html
43,24.13904965,120.7527148,三汀山,https://suan1219.blogspot.com/2018/12/20181104.html
44,24.1379947,120.8179708,暗影山,https://suan1219.blogspot.com/2021/03/o-2021219.html
45,24.07493723,120.8290745,大橫屏山,https://suan1219.blogspot.com/2011/11/blog-post.html
46,24.06123868,120.7136683,阿罩霧山,https://suan1219.blogspot.com/2011/08/blog-post.html
47,23.93458712,120.8417753,九份二山,https://suan1219.blogspot.com/2007/04/blog-post_13.html
48,23.88922409,120.6317052,橫山,https://suan1219.blogspot.com/2011/08/blog-post.html
49,23.88140235,120.908153,貓囒山,https://suan1219.blogspot.com/2007/04/blog-post_7356.html
50,23.85497815,120.8382592,集集大山,https://suan1219.blogspot.com/2007/02/blog-post_3818.html
51,23.82004598,120.6421771,松柏坑山,https://suan1219.blogspot.com/2011/08/blog-post.html
52,23.81403456,120.8983269,後尖山,https://suan1219.blogspot.com/2020/11/20201018.html
53,23.69171016,120.8062988,鳳凰山,https://suan1219.blogspot.com/2012/01/blog-post_7.html
54,23.64113417,120.8140383,金柑樹山,https://suan1219.blogspot.com/2011/10/blog-post_19.html
55,23.60373479,120.7246659,石壁山,https://suan1219.blogspot.com/2012/02/blog-post_2.html
56,23.59004027,120.6232766,雲嘉大尖山,https://suan1219.blogspot.com/2012/01/blog-post_3261.html
57,23.56721166,120.608236,梨子腳山,https://suan1219.blogspot.com/2012/01/blog-post_3261.html
58,23.53670781,120.6079151,獨立山,https://suan1219.blogspot.com/2012/01/blog-post_3261.html
59,23.5359091,120.8077519,大塔山,https://suan1219.blogspot.com/2012/03/blog-post_6.html
60,23.49788569,120.719883,大凍山(嘉義),https://suan1219.blogspot.com/2012/02/blog-post_2.html
61,23.49127094,120.6425123,大湖尖山,https://suan1219.blogspot.com/2012/03/blog-post_6.html
62,23.48002645,120.4921051,紅毛埤山,https://suan1219.blogspot.com/2012/01/blog-post_3261.html
63,23.31136127,120.5227933,大棟山(台南),https://suan1219.blogspot.com/2011/10/blog-post.html
64,23.26593756,120.5046292,崁頭山,https://suan1219.blogspot.com/2012/01/blog-post_31.html
65,23.24063485,120.5925932,三腳南山,https://suan1219.blogspot.com/2012/02/blog-post_2314.html
66,23.18299569,120.6413244,西阿里關山,https://suan1219.blogspot.com/2012/02/blog-post_2314.html
67,23.17589689,120.5656458,竹子尖山,https://suan1219.blogspot.com/2012/01/blog-post_31.html
68,23.062518,120.738557,藤枝山,https://suan1219.blogspot.com/2018/04/20180406.html
69,23.05586703,120.6226911,白雲山,https://suan1219.blogspot.com/2012/02/blog-post_15.html
70,23.04853647,120.5232073,刣牛湖山,https://suan1219.blogspot.com/2012/01/blog-post_31.html
71,22.95534127,120.6905,鳴海山,https://suan1219.blogspot.com/2012/02/blog-post_15.html
72,22.89677876,120.4968175,旗尾山,https://suan1219.blogspot.com/2012/03/blog-post_22.html
73,22.85709523,120.6763886,尾寮山,https://suan1219.blogspot.com/2012/03/blog-post_22.html
74,22.86030826,120.3485719,大崗山,https://suan1219.blogspot.com/2012/02/blog-post_5.html
75,22.72719995,120.3738044,觀音山(高雄),https://suan1219.blogspot.com/2012/02/blog-post_5.html
76,22.65020169,120.6440568,笠頂山,https://suan1219.blogspot.com/2012/03/blog-post_22.html
77,22.6420694,120.2656453,壽山,https://suan1219.blogspot.com/2012/02/blog-post_5.html
78,22.50807353,120.6576991,棚集山,https://suan1219.blogspot.com/2012/05/blog-post_10.html
79,22.19531137,120.7849275,女仍山,https://suan1219.blogspot.com/2012/03/blog-post_30.html
80,22.16388593,120.7329653,里龍山,https://suan1219.blogspot.com/2012/04/blog-post.html
81,21.968357,120.778893,大山母山,https://suan1219.blogspot.com/2020/12/20201125-27.html
82,24.97456186,121.9105112,灣坑頭山,https://suan1219.blogspot.com/2012/08/blog-post_264.html
83,24.859205,121.7297946,三角崙山,https://suan1219.blogspot.com/2012/07/blog-post.html
84,24.85022228,121.7675976,鵲子山,https://suan1219.blogspot.com/2012/07/blog-post.html
85,24.50922215,121.5640465,三星山,https://suan1219.blogspot.com/2012/08/blog-post_264.html
86,24.178751,121.400826,卡拉寶山,https://suan1219.blogspot.com/2017/09/201799.html
87,24.17812407,121.6420068,立霧山,https://suan1219.blogspot.com/2013/01/blog-post.html
88,23.9707785,121.5315112,初音山,https://suan1219.blogspot.com/2012/08/blog-post_16.html
89,23.91908613,121.5207798,鯉魚山,https://suan1219.blogspot.com/2012/08/blog-post_16.html
90,23.82550428,121.5521482,月眉山,https://suan1219.blogspot.com/2012/08/blog-post_16.html
91,23.54474958,121.4890982,八里灣山,https://suan1219.blogspot.com/2012/08/blog-post_16.html
92,23.23255378,121.3168538,萬人山,https://suan1219.blogspot.com/2012/09/blog-post.html
93,22.89512459,121.188453,都蘭山,https://suan1219.blogspot.com/2012/09/blog-post.html
94,22.64313927,120.952615,太麻里山,https://suan1219.blogspot.com/2010/09/blog-post.html
95,22.43219728,120.9101657,加奈美山,https://suan1219.blogspot.com/2012/05/blog-post_10.html
96,22.32259015,120.879018,巴塱衛山,https://suan1219.blogspot.com/2012/05/blog-post_10.html
97,22.05304465,121.5347067,紅頭山,https://suan1219.blogspot.com/2012/10/blog-post.html
98,26.15029335,119.9234533,雲台山,https://suan1219.blogspot.com/2012/10/blog-post_2425.html
99,24.4635272,118.4148717,太武山,https://suan1219.blogspot.com/2011/03/blog-post.html
100,23.54957672,119.5481147,蛇頭山,https://www.keepon.com.tw/thread-c0c48ffe-16d8-e411-93ec-000e04b74954.html